     2.11           OBSERVATION DATA    M (MIXED)           RINEX VERSION / TYPE
teqc  2015Nov6                          20220616 21:08:08UTCPGM / RUN BY / DATE
-Unknown-           -Unknown-                               OBSERVER / AGENCY
log0525b                                                    MARKER NAME
03AEL9E3DRV2B21YCKQKJAVAD TRIUMPH2      3.7.2 Aug,31,2017   REC # / TYPE / VERS
  4475697.4519  3087497.1033  3323133.5807                  APPROX POSITION XYZ
-Unknown-                                                   ANT # / TYPE
        0.0000        0.0000        0.0000                  ANTENNA: DELTA H/E/N
     1     1                                                WAVELENGTH FACT L1/2
     4    C1    L1    L2    P2                              # / TYPES OF OBSERV
     1.0000                                                 INTERVAL
    18                                                      LEAP SECONDS
File edited with WinTEQC                                    COMMENT
teqc edited: all GLONASS satellites excluded                COMMENT
teqc edited: all SBAS satellites excluded                   COMMENT
teqc edited: all Galileo satellites excluded                COMMENT
  2022     5    25    11    59    3.0000000     GPS         TIME OF FIRST OBS
MSXP|IAx86-PII|bcc32 5.0|MSWin95->XP|486/DX+                COMMENT
Justin v.2.124.163.2JAVAD GNSS          20220529 125509 UTC COMMENT
                                                            END OF HEADER
 22  5 25 11 59  3.0000000  0  9G10G13G15G16G18G23G26G27G29
  21823498.877   114683269.800 6  89363587.056 6  21823506.507
  25350536.541
  23371440.707   122817755.096 5  95702148.267 5  23371447.247
  22019173.966   115711539.975 5  90164837.818 5  22019176.766
  21299844.567
  20458368.389   107509452.583 5  83773599.548 5  20458370.709
  21235763.225   111594697.701 6  86956908.616 6  21235770.985
  23712388.302
  22618095.438
 22  5 25 11 59  4.0000000  0  9G10G13G15G16G18G23G26G27G29
  21823008.812   114680694.008 5  89361579.965 5  21823015.832
  25350544.809
  23371310.531   122817071.168 5  95701615.352 5  23371316.861
  22018881.713   115710002.947 5  90163640.169 5  22018885.423
  21300114.857
  20458219.524   107508671.579 5  83772990.990 5  20458222.014
  21235876.451   111595290.626 6  86957370.574 6  21235883.741
  23711818.166
  22618466.387   118860847.766 4  92618843.425 4  22618470.957
 22  5 25 11 59  5.0000000  0  9G10G13G15G16G18G23G26G27G29
  21822519.449   114678118.862 6  89359573.362 6  21822526.179
  25350551.234
  23371181.234   122816388.044 3  95701083.138 3  23371187.294
  22018589.206   115708466.821 5  90162443.183 5  22018592.826
  21300385.396
  20458070.851   107507891.402 5  83772383.083 5  20458073.561
  21235989.343   111595884.345 6  86957833.213 6  21235996.813
  23711247.367
  22618837.191   118862795.459 4  92620361.113 4  22618842.901
 22  5 25 11 59  6.0000000  0  9G10G13G15G16G18G23G26G27G29
  21822029.223   114675544.161 6  89357567.090 6  21822036.023
  25350558.432
  23371050.803   122815705.444 5  95700551.248 5  23371057.243
  22018295.979   115706931.256 5  90161246.622 5  22018299.879
  21300655.545   111935705.953 5  87222628.126 5  21300655.875
  20457922.763   107507111.869 5  83771775.642 5  20457925.613
  21236102.785   111596478.700 6  86958296.334 6  21236109.905
  23710676.376
  22619206.565   118864743.336 5  92621878.928 5  22619213.275
 22  5 25 11 59  7.0000000  0  9G10G13G15G16G18G23G26G27G29
  21821539.155   114672970.018 6  89355561.275 6  21821546.135
  25350566.592
  23370920.627   122815023.572 5  95700019.928 5  23370926.847
  22018004.173   115705396.424 5  90160050.656 5  22018007.973
  21300926.327   111937126.898 5  87223735.352 5  21300930.967
  20457774.539   107506333.099 5  83771168.803 5  20457776.999
  21236215.801   111597073.774 6  86958760.035 6  21236223.001
  23710105.535
  22619577.630   118866691.673 5  92623397.132 5  22619584.080
 22  5 25 11 59  8.0000000  0  9G10G13G15G16G18G23G26G27G29
  21821049.894   114670396.488 6  89353555.940 6  21821056.374
  25350575.304
  23370790.712   122814342.470 5  95699489.186 5  23370797.372
  22017712.514   115703862.910 5  90158854.826 5  22017716.024
  21301196.910   111938547.730 5  87224843.379 5  21301201.110
  20457626.682   107505555.150 5  83770562.616 5  20457628.972
  21236329.422   111597669.686 6  86959224.375 6  21236336.212
  23709534.410
  22619948.090   118868640.546 5  92624915.728 5  22619954.480
 22  5 25 11 59  9.0000000  0  9G10G13G15G16G18G23G26G27G29
  21820560.024   114667823.394 6  89351550.941 6  21820566.474
  25350581.540
  23370661.454   122813661.917 5  95698958.886 5  23370668.254
  22017420.258   115702329.493 5  90157659.945 5  22017424.238
  21301467.917   111939969.220 5  87225951.036 5  21301471.917
  20457478.183   107504777.854 5  83769956.926 5  20457480.933
  21236443.019   111598266.197 6  86959689.180 6  21236449.959
  23708963.734   124591450.842 4  97084246.951 4  23708974.554
  22620319.829   118870589.699 5  92626434.539 5  22620325.219
 22  5 25 11 59 10.0000000  0  9G10G13G15G16G18G23G26G27G29
  21820070.792   114665250.701 6  89349546.234 6  21820077.052
  25350590.422
  23370532.396   122812981.899 5  95698429.009 5  23370538.666
  22017128.692   115700796.593 5  90156465.508 5  22017133.172
  21301737.856   111941390.819 5  87227058.776 5  21301742.156
  20457330.688   107504001.125 5  83769351.683 5  20457333.598
  21236556.752   111598863.267 6  86960154.424 6  21236563.442
  23708392.917   124588451.977 4  97081910.188 4  23708403.427
  22620690.904   118872539.146 5  92627953.591 5  22620696.164
 22  5 25 11 59 11.0000000  0  9G10G13G15G16G18G23G26G27G29
  21819581.087   114662678.403 6  89347541.853 6  21819587.427
  25350597.809
  23370403.428   122812302.461 5  95697899.568 5  23370409.488
  22016837.417   115699264.325 5  90155271.512 5  22016840.917
  21302008.748   111942812.552 5  87228166.612 5  21302012.268
  20457183.127   107503225.018 5  83768746.927 5  20457185.387
  21236670.304   111599460.927 6  86960620.135 6  21236677.414
  23707822.463   124585453.145 4  97079573.450 4  23707833.133
  22621061.072   118874488.877 5  92629472.856 5  22621066.812
 22  5 25 11 59 12.0000000  0  9G10G13G15G16G18G23G26G27G29
  21819091.751   114660106.735 6  89345537.961 6  21819098.141
  25350606.374
  23370274.320   122811623.767 5  95697370.710 5  23370280.540
  22016545.928   115697732.846 5  90154078.147 5  22016549.218
  21302279.563   111944234.659 5  87229274.750 5  21302282.853
  20457035.716   107502449.728 5  83768142.810 5  20457038.226
  21236783.919   111600059.395 5  86961086.471 5  21236790.999
  23707251.946   124582454.540 4  97077236.854 4  23707262.446
  22621432.503   118876439.090 5  92630992.491 5  22621438.023
 22  5 25 11 59 13.0000000  0  9G10G13G15G16G18G23G26G27G29
  21818602.832   114657535.710 5  89343534.572 5  21818608.952
  25350614.610
  23370144.093   122810945.822 5  95696842.459 5  23370150.723
  22016255.118   115696202.144 5  90152885.398 5  22016257.378
  21302550.542   111945657.105 5  87230383.150 5  21302553.722
  20456888.092   107501675.284 5  83767539.343 5  20456890.492
  21236897.969   111600658.678 5  86961553.442 5  21236905.179
  23706680.410   124579456.116 4  97074900.430 4  23706690.530
  22621803.616   118878389.827 5  92632512.542 5  22621809.466
 22  5 25 11 59 14.0000000  0  9G10G13G15G16G18G23G26G27G29
  21818113.594   114654965.223 5  89341531.597 5  21818119.844
  25350621.694
  23370015.401   122810268.586 5  95696314.736 5  23370022.501
  22015963.890   115694672.165 5  90151693.209 5  22015966.510
  21302821.444   111947079.850 5  87231491.782 5  21302824.324
  20456740.696   107500901.584 5  83766936.466 5  20456743.346
  21237012.205   111601258.695 5  86962020.986 5  21237019.665
  23706110.927   124576457.856 4  97072564.111 4  23706118.827
  22622175.641   118880340.970 5  92634032.924 5  22622180.511
 22  5 25 11 59 15.0000000  0  9G10G13G15G16G18G23G26G27G29
  21817624.270   114652394.582 5  89339528.495 5  21817630.720
  25350630.589
  23369886.925   122809591.349 5  95695787.017 5  23369893.025
  22015673.131   115693142.171 5  90150501.002 5  22015675.841
  21303091.644   111948502.126 5  87232600.050 5  21303094.894
  20456593.504   107500127.912 5  83766333.605 5  20456596.404
  21237126.615   111601858.708 6  86962488.532 6  21237133.695
  23705539.451   124573459.016 4  97070227.375 4  23705548.751
  22622546.280   118882291.808 5  92635553.056 5  22622551.630
 22  5 25 11 59 16.0000000  0  9G10G13G15G16G18G23G26G27G29
  21817135.234   114649824.356 6  89337525.731 6  21817141.374
  25350641.093
  23369757.870   122808914.660 5  95695259.730 5  23369764.530
  22015380.887   115691612.800 5  90149309.278 5  22015383.877
  21303362.677   111949924.575 5  87233708.446 5  21303365.357
  20456446.267   107499354.867 5  83765731.227 5  20456449.287
  21237240.617   111602459.336 6  86962956.548 6  21237247.727
  23704968.904   124570460.211 4  97067890.653 4  23704978.184
  22622918.110   118884242.959 5  92637073.425 5  22622923.040
 22  5 25 11 59 17.0000000  0  9G10G13G15G16G18G23G26G27G29
  21816646.521   114647254.758 5  89335523.449 5  21816652.481
  25350649.772   133218557.613 1 103806669.209 1  25350649.982
  23369629.379   122808238.720 5  95694733.024 5  23369635.799
  22015090.685   115690084.210 5  90148118.176 5  22015093.855
  21303633.536   111951347.381 5  87234817.121 5  21303636.106
  20456299.513   107498582.646 5  83765129.503 5  20456302.183
  21237354.709   111603060.762 5  86963425.192 5  21237362.189
  23704398.336   124567461.608 4  97065554.083 4  23704408.276
  22623289.912   118886194.612 5  92638594.186 5  22623294.422
 22  5 25 11 59 18.0000000  0  9G10G13G15G16G18G23G26G27G29
  21816157.152   114644685.351 5  89333521.310 5  21816163.422
  25350657.462
  23369500.121   122807563.114 5  95694206.583 5  23369507.341
  22014799.592   115688555.972 5  90146927.327 5  22014802.632
  21303903.541   111952770.087 5  87235925.725 5  21303906.581
  20456152.530   107497810.797 5  83764528.062 5  20456155.070
  21237469.311   111603662.548 5  86963894.112 5  21237476.621
  23703826.484   124564462.764 4  97063217.312 4  23703837.804
  22623660.642   118888146.314 5  92640114.990 5  22623665.952
 22  5 25 11 59 19.0000000  0  8G10G15G16G18G23G26G27G29
  21815668.550   114642116.324 6  89331519.478 6  21815674.470
  23369372.001   122806888.054 5  95693680.571 5  23369378.871
  22014509.075   115687028.300 5  90145736.940 5  22014511.695
  21304173.942   111954192.927 5  87237034.433 5  21304177.462
  20456005.695   107497039.564 5  83763927.100 5  20456008.585
  21237584.371   111604264.893 5  86964363.474 5  21237591.131
  23703256.735   124561463.917 4  97060880.549 4  23703266.575
  22624033.014   118890098.285 5  92641636.001 5  22624037.284
 22  5 25 11 59 20.0000000  0  8G10G15G16G18G23G26G27G29
  21815179.507   114639547.938 5  89329518.139 5  21815185.977
  23369244.518   122806213.751 5  95693155.139 5  23369250.928
  22014218.061   115685501.425 5  90144547.180 5  22014221.621
  21304445.203   111955616.107 5  87238143.403 5  21304447.993
  20455859.528   107496269.151 5  83763326.777 5  20455862.028
  21237699.093   111604868.078 5  86964833.485 5  21237705.823
  23702685.549   124558465.305 4  97058543.972 4  23702695.179
  22624403.710   118892050.769 5  92643157.415 5  22624408.300
 22  5 25 11 59 21.0000000  0  8G10G15G16G18G23G26G27G29
  21814690.636   114636979.935 5  89327517.097 5  21814697.576
  23369115.862   122805539.985 5  95692630.127 5  23369122.992
  22013927.331   115683975.100 5  90143357.825 5  22013930.701
  21304716.192   111957039.417 5  87239252.474 5  21304719.202
  20455712.999   107495499.329 5  83762726.913 5  20455715.529
  21237814.132   111605471.812 5  86965303.926 5  21237820.792
  23702115.143   124555466.668 4  97056207.374 4  23702124.143
  22624775.714   118894003.494 5  92644679.016 5  22624780.184
 22  5 25 11 59 22.0000000  0  8G10G15G16G18G23G26G27G29
  21814201.899   114634412.525 5  89325516.518 5  21814208.819
  23368987.566   122804866.942 5  95692105.676 5  23368994.296
  22013637.309   115682449.529 5  90142169.072 5  22013640.299
  21304986.803   111958463.029 5  87240361.781 5  21304989.783
  20455566.577   107494730.294 5  83762127.661 5  20455569.637
  21237928.959   111606076.304 5  86965774.956 5  21237935.649
  23701545.184   124552468.195 4  97053870.922 4  23701553.604
  22625146.836   118895956.703 5  92646200.990 5  22625151.936
 22  5 25 11 59 23.0000000  0  8G10G15G16G18G23G26G27G29
  21813713.657   114631845.708 5  89323516.404 5  21813720.097
  23368860.352   122804194.641 5  95691581.810 5  23368866.962
  22013347.686   115680924.726 5  90140980.914 5  22013349.976
  21305257.914   111959886.977 5  87241471.347 5  21305261.184
  20455420.356   107493962.060 5  83761529.045 5  20455423.386
  21238044.490   111606681.597 5  86966246.602 5  21238051.000
  23700974.987   124549469.945 4  97051534.607 4  23700983.967
  22625517.775   118897910.384 5  92647723.333 5  22625523.655
 22  5 25 11 59 24.0000000  0  8G10G15G16G18G23G26G27G29
  21813225.385   114629279.498 5  89321516.769 5  21813231.715
  23368732.739   122803523.089 5  95691058.526 5  23368738.459
  22013057.612   115679400.683 5  90139793.357 5  22013060.132
  21305529.682   111961311.249 5  87242581.167 5  21305532.172
  20455274.039   107493194.615 5  83760931.037 5  20455277.359
  21238159.586   111607287.650 5  86966718.848 5  21238166.366
  23700403.757   124546471.847 4  97049198.440 4  23700412.727
  22625890.864   118899864.521 5  92649246.034 5  22625895.644
 22  5 25 11 59 25.0000000  0  8G10G15G16G18G23G26G27G29
  21812737.194   114626713.796 5  89319517.519 5  21812743.434
  23368605.180   122802852.185 5  95690535.747 5  23368611.500
  22012766.955   115677877.358 5  90138606.349 5  22012770.435
  21305800.430   111962735.763 5  87243691.178 5  21305803.080
  20455128.044   107492427.878 5  83760333.582 5  20455131.604
  21238275.420   111607894.390 5  86967191.630 5  21238281.880
  23699833.507   124543473.862 4  97046862.362 4  23699843.277
  22626262.666   118901819.029 5  92650769.022 5  22626267.366
 22  5 25 11 59 26.0000000  0  8G10G15G16G18G23G26G27G29
  21812248.982   114624148.578 5  89317518.651 5  21812255.452
  23368476.902   122802181.903 5  95690013.440 5  23368483.292
  22012477.505   115676354.661 5  90137419.832 5  22012480.645
  21306071.263   111964160.495 5  87244801.356 5  21306074.063
  20454982.722   107491661.849 5  83759736.668 5  20454985.252
  21238389.659   111608501.802 5  86967664.943 5  21238397.429
  23699262.447   124540475.951 4  97044526.323 4  23699273.307
  22626634.883   118903773.951 5  92652292.335 5  22626639.633
 22  5 25 11 59 27.0000000  0  8G10G15G16G18G23G26G27G29
  21811761.013   114621584.008 5  89315520.284 5  21811767.093
  23368349.187   122801512.403 5  95689491.749 5  23368355.627
  22012188.049   115674832.778 5  90136233.954 5  22012191.429
  21306342.329   111965585.583 5  87245911.817 5  21306345.399
  20454837.086   107490896.644 5  83759140.406 5  20454839.536
  21238506.209   111609110.034 5  86968138.883 5  21238513.099
  23698692.700   124537478.271 4  97042190.463 4  23698702.370
  22627006.649   118905729.352 5  92653816.015 5  22627011.669
 22  5 25 11 59 28.0000000  0  8G10G15G16G18G23G26G27G29
  21811272.843   114619020.002 5  89313522.362 5  21811279.323
  23368221.635   122800843.626 5  95688970.623 5  23368228.675
  22011898.549   115673311.618 5  90135048.640 5  22011900.849
  21306613.770   111967010.962 5  87247022.502 5  21306617.110
  20454691.899   107490132.212 5  83758544.750 5  20454694.149
  21238622.322   111609718.994 5  86968613.400 5  21238629.132
  23698122.708   124534480.772 4  97039854.769 4  23698131.578
  22627379.231   118907685.202 5  92655340.054 5  22627384.011
 22  5 25 11 59 29.0000000  0  8G10G15G16G18G23G26G27G29
  21810785.596   114616456.447 5  89311524.800 5  21810791.836
  23368094.712   122800175.447 5  95688449.962 5  23368101.392
  22011609.426   115671791.107 5  90133863.817 5  22011612.876
  21306885.388   111968436.551 5  87248133.346 5  21306887.538
  20454546.179   107489368.426 5  83757949.592 5  20454548.429
  21238738.069   111610328.609 5  86969088.423 5  21238745.079
  23697551.570   124531483.315 4  97037519.103 4  23697561.400
  22627750.839   118909641.381 5  92656864.339 5  22627755.959
 22  5 25 11 59 30.0000000  0  8G10G15G16G18G23G26G27G29
  21810297.672   114613892.846 5  89309527.181 5  21810303.742
  23367967.738   122799507.328 5  95687929.344 5  23367974.848
  22011319.754   115670270.668 5  90132679.054 5  22011322.474
  21307156.389   111969861.783 5  87249243.901 5  21307158.919
  20454400.996   107488604.776 5  83757354.543 5  20454403.296
  21238854.682   111610938.324 5  86969563.523 5  21238860.982
  23696981.764   124528485.359 4  97035183.031 4  23696990.704
  22628123.088   118911597.354 5  92658388.471 5  22628128.318
 22  5 25 11 59 31.0000000  0  8G10G15G16G18G23G26G27G29
  21809809.853   114611329.941 5  89307530.119 5  21809815.813
  23367840.428   122798840.077 5  95687409.420 5  23367847.488
  22011031.039   115668751.136 5  90131495.006 5  22011033.709
  21307427.938   111971287.476 5  87250354.839 5  21307429.888
  20454256.061   107487842.061 5  83756760.211 5  20454258.101
  21238970.093   111611548.927 5  86970039.320 5  21238977.263
  23696410.974   124525487.763 4  97032847.229 4  23696420.194
  22628495.233   118913553.940 5  92659913.079 5  22628500.243
 22  5 25 11 59 32.0000000  0  8G10G15G16G18G23G26G27G29
  21809321.797   114608767.547 5  89305533.449 5  21809328.367
  23367713.945   122798173.454 5  95686889.972 5  23367720.355
  22010741.800   115667232.271 5  90130311.484 5  22010745.330
  21307698.722   111972713.367 5  87251465.926 5  21307701.252
  20454110.206   107487080.020 5  83756166.413 5  20454113.446
  21239086.260   111612160.213 5  86970515.643 5  21239093.570
  23695840.757   124522490.212 4  97030511.482 4  23695850.047
  22628868.285   118915510.872 5  92661437.961 5  22628872.595
 22  5 25 11 59 33.0000000  0  8G10G15G16G18G23G26G27G29
  21808834.790   114606205.598 5  89303537.120 5  21808840.750
  23367587.739   122797507.419 5  95686370.983 5  23367594.069
  22010453.207   115665714.002 5  90129128.405 5  22010455.697
  21307970.418   111974139.454 5  87252577.155 5  21307973.148
  20453965.745   107486318.644 5  83755573.132 5  20453968.005
  21239202.540   111612772.120 5  86970992.449 5  21239210.130
  23695270.773   124519492.695 4  97028175.752 4  23695279.493
  22629240.682   118917468.124 5  92662963.089 5  22629245.272
 22  5 25 11 59 34.0000000  0  8G10G15G16G18G23G26G27G29
  21808346.053   114603644.196 5  89301541.263 5  21808353.333
  23367461.352   122796842.034 5  95685852.499 5  23367467.032
  22010163.899   115664196.410 5  90127945.879 5  22010166.789
  21308241.466   111975565.764 5  87253688.584 5  21308244.366
  20453820.619   107485557.970 5  83754980.401 5  20453823.999
  21239320.059   111613384.706 5  86971469.773 5  21239326.589
  23694700.247   124516495.304 4  97025840.120 4  23694708.697
  22629612.772   118919425.759 5  92664488.514 5  22629617.792
 22  5 25 11 59 35.0000000  0  8G10G15G16G18G23G26G27G29
  21807860.395   114601083.145 3  89299545.657 3  21807864.775
  23367334.132   122796177.288 5  95685334.557 5  23367340.562
  22009875.453   115662679.544 5  90126763.877 5  22009878.313
  21308513.159   111976992.331 5  87254800.176 5  21308515.979
  20453676.439   107484798.036 5  83754388.248 5  20453679.829
  21239436.366   111613997.974 5  86971947.655 5  21239443.136
  23694129.964   124513498.032 4  97023504.600 4  23694138.414
  22629986.080   118921383.847 5  92666014.308 5  22629990.270
 22  5 25 11 59 36.0000000  0  8G10G15G16G18G23G26G27G29
  21807371.743   114598523.012 3  89297550.727 3  21807378.503
  23367207.428   122795513.423 5  95684817.213 5  23367214.278
  22009586.765   115661163.475 5  90125582.550 5  22009589.665
  21308784.340   111978419.283 5  87255912.100 5  21308787.390
  20453531.963   107484038.921 5  83753796.716 5  20453534.603
  21239553.615   111614612.152 5  86972426.221 5  21239560.195
  23693559.504   124510500.940 4  97021169.227 4  23693568.384
  22630358.107   118923342.370 5  92667540.401 5  22630363.147
 22  5 25 11 59 37.0000000  0  8G10G15G16G18G23G26G27G29
  21806885.210   114595963.338 5  89295556.131 5  21806892.030
  23367081.215   122794850.261 5  95684300.483 5  23367087.515
  22009298.578   115659648.232 5  90124401.838 5  22009301.458
  21309055.838   111979846.585 5  87257024.267 5  21309059.118
  20453387.598   107483280.644 5  83753205.861 5  20453390.638
  21239669.719   111615227.084 5  86972905.407 5  21239677.149
  23692988.381   124507504.155 4  97018834.061 4  23692997.571
  22630731.502   118925301.470 5  92669066.976 5  22630736.012
 22  5 25 11 59 38.0000000  0  8G10G15G16G18G23G26G27G29
  21806398.059   114593404.343 6  89293562.131 6  21806405.299
  23366955.701   122794187.866 5  95683784.332 5  23366961.831
  22009010.723   115658133.770 5  90123221.733 5  22009013.063
  21309328.169   111981274.227 5  87258136.712 5  21309330.489
  20453243.395   107482523.194 5  83752615.640 5  20453245.975
  21239786.958   111615842.806 5  86973385.190 5  21239794.168
  23692417.733   124504507.546 4  97016499.043 4  23692427.553
  22631104.018   118927261.015 5  92670593.887 5  22631108.708
 22  5 25 11 59 39.0000000  0  8G10G15G16G18G23G26G27G29
  21805911.625   114590846.024 6  89291568.628 6  21805918.375
  23366829.438   122793526.318 5  95683268.835 5  23366836.208
  22008722.748   115656620.131 5  90122042.273 5  22008725.098
  21309599.358   111982702.271 5  87259249.474 5  21309602.408
  20453099.399   107481766.620 5  83752026.102 5  20453102.239
  21239905.167   111616459.394 5  86973865.640 5  21239911.697
  23691848.373   124501511.202 4  97014164.230 4  23691856.903
  22631477.103   118929221.168 5  92672121.271 5  22631481.673
 22  5 25 11 59 40.0000000  0  8G10G15G16G18G23G26G27G29
  21805424.878   114588288.012 6  89289575.378 6  21805431.178
  23366703.588   122792865.210 5  95682753.678 5  23366710.438
  22008434.567   115655106.976 5  90120863.198 5  22008437.867
  21309871.246   111984130.370 5  87260362.278 5  21309873.956
  20452955.885   107481010.556 5  83751436.963 5  20452958.495
  21240022.095   111617076.472 5  86974346.476 5  21240029.145
  23691278.647   124498514.778 4  97011829.351 4  23691287.647
  22631849.524   118931181.443 5  92673648.748 5  22631854.814
 22  5 25 11 59 41.0000000  0  8G10G15G16G18G23G26G27G29
  21804938.210   114585730.415 6  89287582.450 6  21804944.490
  23366578.209   122792204.653 5  95682238.965 5  23366584.459
  22008146.937   115653594.431 5  90119684.587 5  22008150.097
  21310143.350   111985558.601 5  87261475.184 5  21310145.750
  20452811.739   107480255.099 5  83750848.309 5  20452814.409
  21240139.670   111617694.150 5  86974827.784 5  21240146.880
  23690708.784   124495518.333 4  97009494.483 4  23690717.014
  22632222.939   118933142.047 5  92675176.500 5  22632227.989
 22  5 25 11 59 42.0000000  0  8G10G15G16G18G23G26G27G29
  21804451.791   114583173.178 6  89285589.798 6  21804458.081
  23366453.882   122791544.584 5  95681724.624 5  23366459.492
  22007859.070   115652082.378 5  90118506.380 5  22007862.510
  21310415.034   111986986.930 5  87262588.171 5  21310417.434
  20452668.726   107479500.229 5  83750260.093 5  20452670.976
  21240257.510   111618312.360 5  86975309.501 5  21240264.420
  23690138.198   124492521.872 4  97007159.577 4  23690147.158
  22632596.540   118935102.874 5  92676704.412 5  22632601.390
 22  5 25 11 59 43.0000000  0  8G10G15G16G18G23G26G27G29
  21803965.336   114580616.525 6  89283597.609 6  21803971.626
  23366327.411   122790885.244 5  95681210.857 5  23366333.541
  22007571.126   115650571.100 5  90117328.744 5  22007574.206
  21310686.778   111988415.548 5  87263701.380 5  21310689.828
  20452524.883   107478746.111 5  83749672.470 5  20452527.353
  21240375.394   111618931.321 5  86975791.808 5  21240382.174
  23689568.682   124489525.556 4  97004824.779 4  23689576.192
  22632968.919   118937064.159 5  92678232.680 5  22632974.389
 22  5 25 11 59 44.0000000  0  8G10G15G16G18G23G26G27G29
  21803478.734   114578060.182 6  89281605.656 6  21803484.864
  23366201.912   122790226.367 5  95680697.446 5  23366208.282
  22007283.753   115649060.277 5  90116151.490 5  22007286.333
  21310958.578   111989844.211 5  87264814.617 5  21310961.378
  20452381.972   107477992.525 5  83749085.249 5  20452384.272
  21240493.521   111619550.755 5  86976274.481 5  21240500.151
  23688998.788   124486529.165 4  97002489.935 4  23689006.278
  22633342.190   118939025.630 5  92679761.093 5  22633347.590
 22  5 25 11 59 45.0000000  0  8G10G15G16G18G23G26G27G29
  21802992.150   114575504.471 6  89279614.194 6  21802998.630
  23366077.111   122789568.260 5  95680184.639 5  23366083.131
  22006996.265   115647550.265 5  90114974.851 5  22006999.235
  21311230.835   111991273.222 5  87265928.141 5  21311233.345
  20452238.671   107477239.752 5  83748498.673 5  20452240.671
  21240611.115   111620170.998 5  86976757.781 5  21240617.955
  23688427.237   124483532.976 4  97000155.255 4  23688435.637
  22633716.253   118940987.579 5  92681289.877 5  22633721.153
 22  5 25 11 59 46.0000000  0  8G10G15G16G18G23G26G27G29
  21802506.045   114572949.144 6  89277623.032 6  21802512.465
  23365952.404   122788910.691 5  95679672.247 5  23365957.704
  22006709.021   115646040.799 5  90113798.652 5  22006712.281
  21311502.387   111992702.355 5  87267041.737 5  21311505.107
  20452095.010   107476487.572 5  83747912.561 5  20452097.700
  21240729.182   111620791.822 5  86977241.549 5  21240736.242
  23687857.589   124480536.752 4  96997820.534 4  23687865.799
  22634090.053   118942949.804 5  92682818.884 5  22634094.423
 22  5 25 11 59 47.0000000  0  8G10G15G16G18G23G26G27G29
  21802020.067   114570394.764 5  89275632.610 5  21802026.677
  23365826.968   122788254.172 5  95679160.678 5  23365832.778
  22006421.751   115644532.451 5  90112623.319 5  22006425.351
  21311774.976   111994132.142 5  87268155.857 5  21311777.236
  20451952.255   107475736.519 5  83747327.329 5  20451955.355
  21240847.408   111621413.747 5  86977726.169 5  21240854.448
  23687287.216   124477541.085 4  96995486.248 4  23687296.086
  22634463.753   118944912.840 5  92684348.517 5  22634467.523
 22  5 25 11 59 48.0000000  0  8G10G15G16G18G23G26G27G29
  21801534.079   114567840.756 5  89273642.474 5  21801540.539
  23365701.843   122787598.198 5  95678649.530 5  23365707.643
  22006135.656   115643024.629 5  90111448.392 5  22006138.906
  21312046.990   111995562.025 5  87269270.053 5  21312049.210
  20451809.602   107474986.044 5  83746742.538 5  20451812.242
  21240966.330   111622036.220 5  86978211.201 5  21240972.900
  23686717.419   124474545.361 4  96993151.914 4  23686725.739
  22634837.309   118946876.105 5  92685878.334 5  22634841.359
 22  5 25 11 59 49.0000000  0  8G10G15G16G18G23G26G27G29
  21801048.118   114565287.318 5  89271652.784 5  21801054.338
  23365578.335   122786942.921 5  95678138.921 5  23365583.235
  22005848.719   115641517.569 5  90110274.059 5  22005851.309
  21312318.821   111996992.219 5  87270384.493 5  21312321.171
  20451666.463   107474236.333 5  83746158.356 5  20451669.373
  21241084.634   111622659.444 5  86978696.827 5  21241091.624
  23686146.902   124471549.810 4  96990817.741 4  23686156.192
  22635210.656   118948839.844 5  92687408.516 5  22635215.196
 22  5 25 11 59 50.0000000  0  8G10G15G16G18G23G26G27G29
  21800562.518   114562734.228 5  89269663.361 5  21800568.858
  23365452.644   122786288.164 5  95677628.717 5  23365458.494
  22005561.967   115640011.034 5  90109100.113 5  22005564.557
  21312591.149   111998422.476 5  87271498.981 5  21312593.299
  20451524.493   107473487.182 5  83745574.599 5  20451526.683
  21241203.409   111623283.186 5  86979182.860 5  21241210.339
  23685576.807   124468554.211 4  96988483.489 4  23685585.037
  22635584.824   118950803.781 5  92688938.842 5  22635588.644
 22  5 25 11 59 51.0000000  0  8G10G15G16G18G23G26G27G29
  21800076.578   114560181.668 5  89267674.359 5  21800082.798
  23365328.263   122785634.074 5  95677119.048 5  23365333.303
  22005275.351   115638505.185 5  90107926.727 5  22005277.581
  21312863.250   111999853.012 5  87272613.679 5  21312866.030
  20451381.417   107472738.775 5  83744991.419 5  20451384.487
  21241322.214   111623907.648 5  86979669.451 5  21241329.334
  23685006.803   124465558.740 4  96986149.376 4  23685016.423
  22635958.431   118952768.134 5  92690469.510 5  22635962.851
 22  5 25 11 59 52.0000000  0  8G10G15G16G18G23G26G27G29
  21799591.286   114557629.938 5  89265686.003 5  21799597.046
  23365203.954   122784980.913 5  95676610.089 5  23365210.104
  22004989.022   115637000.319 5  90106754.108 5  22004991.192
  21313135.842   112001284.078 5  87273728.790 5  21313138.212
  20451238.863   107471991.359 5  83744409.029 5  20451242.603
  21241441.588   111624533.093 5  86980156.808 5  21241448.328
  23684436.673   124462563.647 4  96983815.544 4  23684446.323
  22636331.984   118954733.160 5  92692000.696 5  22636336.764
 22  5 25 11 59 53.0000000  0  8G10G15G16G18G23G26G27G29
  21799105.409   114555078.594 5  89263697.939 5  21799111.609
  23365079.783   122784328.299 5  95676101.553 5  23365085.863
  22004702.597   115635496.005 5  90105581.928 5  22004705.057
  21313408.290   112002715.241 5  87274843.997 5  21313410.870
  20451096.875   107471244.532 5  83743827.082 5  20451099.955
  21241560.327   111625159.111 5  86980644.615 5  21241567.347
  23683866.398   124459568.546 4  96981481.689 4  23683875.528
  22636706.003   118956698.452 5  92693532.086 5  22636710.833
 22  5 25 11 59 54.0000000  0  8G10G15G16G18G23G26G27G29
  21798620.222   114552527.623 5  89261710.176 5  21798626.342
  23364955.588   122783676.181 5  95675593.419 5  23364961.668
  22004416.637   115633992.249 5  90104410.166 5  22004419.077
  21313680.223   112004146.517 5  87275959.262 5  21313682.843
  20450955.040   107470498.283 5  83743245.595 5  20450957.800
  21241679.593   111625785.673 5  86981132.844 5  21241686.613
  23683296.001   124456573.415 4  96979147.821 4  23683304.821
  22637079.547   118958663.996 5  92695063.671 5  22637084.787
 22  5 25 11 59 55.0000000  0  8G10G15G16G18G23G26G27G29
  21798134.624   114549977.245 5  89259722.867 5  21798140.904
  23364831.069   122783024.811 5  95675085.862 5  23364837.619
  22004130.779   115632489.230 5  90103238.993 5  22004133.789
  21313953.013   112005578.111 5  87277074.790 5  21313955.713
  20450813.212   107469752.819 5  83742664.700 5  20450816.062
  21241799.303   111626412.992 5  86981621.666 5  21241806.123
  23682727.319   124453578.461 4  96976814.098 4  23682735.349
  22637454.458   118960629.986 5  92696595.605 5  22637459.138
 22  5 25 11 59 56.0000000  0  8G10G15G16G18G23G26G27G29
  21797649.305   114547427.598 5  89257736.133 5  21797655.845
  23364708.265   122782374.327 5  95674578.985 5  23364713.405
  22003844.906   115630987.143 5  90102068.513 5  22003846.826
  21314225.237   112007010.150 5  87278190.667 5  21314228.047
  20450671.874   107469008.300 5  83742084.561 5  20450675.034
  21241918.879   111627041.235 5  86982111.199 5  21241925.279
  23682157.363   124450583.833 4  96974480.628 4  23682164.183
  22637828.387   118962596.604 5  92698128.032 5  22637833.107
 22  5 25 11 59 57.0000000  0  8G10G15G16G18G23G26G27G29
  21797164.319   114544878.371 5  89255749.725 5  21797170.479
  23364584.409   122781724.377 5  95674072.531 5  23364589.819
  22003558.793   115629485.606 5  90100898.505 5  22003561.593
  21314497.808   112008442.333 5  87279306.642 5  21314500.538
  20450530.441   107468264.373 5  83741504.875 5  20450532.681
  21242038.247   111627670.050 5  86982601.186 5  21242045.187
  23681587.175   124447589.225 4  96972147.175 4  23681595.665
  22638203.043   118964563.493 5  92699660.664 5  22638207.703
 22  5 25 11 59 58.0000000  0  8G10G15G16G18G23G26G27G29
  21796678.991   114542329.637 5  89253763.699 5  21796685.431
  23364460.849   122781075.066 5  95673566.577 5  23364466.169
  22003273.562   115627984.752 5  90099729.000 5  22003276.192
  21314770.179   112009874.763 5  87280422.828 5  21314773.139
  20450388.562   107467521.163 5  83740925.748 5  20450391.182
  21242158.185   111628299.559 5  86983091.709 5  21242164.635
  23681018.397   124444594.676 4  96969813.764 4  23681026.337
  22638577.262   118966530.758 5  92701193.595 5  22638582.002
 22  5 25 11 59 59.0000000  0  8G10G15G16G18G23G26G27G29
  21796194.631   114539781.178 5  89251777.882 5  21796200.431
  23364336.747   122780426.163 5  95673060.936 5  23364343.167
  22002987.865   115626484.306 5  90098559.828 5  22002991.225
  21315043.194   112011307.123 5  87281538.950 5  21315045.924
  20450247.132   107466778.379 5  83740346.964 5  20450250.322
  21242278.141   111628929.474 5  86983582.550 5  21242284.691
  23680448.081   124441599.998 4  96967480.246 4  23680457.271
  22638951.346   118968498.137 5  92702726.618 5  22638956.566
 22  5 25 12  0  0.0000000  0  8G10G15G16G18G23G26G27G29
  21795709.489   114537233.098 5  89249792.371 5  21795715.609
  23364212.807   122779777.813 5  95672555.733 5  23364219.677
  22002702.310   115624984.461 5  90097391.125 5  22002705.770
  21315315.312   112012739.661 5  87282655.209 5  21315318.372
  20450106.193   107466036.237 5  83739768.664 5  20450108.623
  21242397.434   111629559.993 5  86984073.862 5  21242404.744
  23679878.736   124438605.320 4  96965146.715 4  23679886.266
  22639326.545   118970465.828 5  92704259.879 5  22639331.215
 22  5 25 12  0  1.0000000  0  8G10G15G16G18G23G26G27G29
  21795224.866   114534685.664 5  89247807.363 5  21795230.976
  23364090.054   122779130.220 5  95672051.117 5  23364096.534
  22002417.118   115623485.397 5  90096223.026 5  22002419.938
  21315588.180   112014172.531 5  87283771.724 5  21315591.160
  20449965.078   107465294.890 5  83739191.001 5  20449967.598
  21242518.002   111630191.308 5  86984565.800 5  21242524.852
  23679309.691   124435610.853 4  96962813.372 4  23679316.041
  22639700.354   118972433.986 5  92705793.512 5  22639705.274
 22  5 25 12  0  2.0000000  0  8G10G15G16G18G23G26G27G29
  21794740.065   114532138.950 5  89245822.911 5  21794746.375
  23363967.418   122778483.481 5  95671547.160 5  23363973.828
  22002131.949   115621987.229 5  90095055.612 5  22002134.389
  21315860.818   112015605.844 5  87284888.593 5  21315864.038
  20449823.834   107464554.467 5  83738614.047 5  20449827.134
  21242638.237   111630823.494 5  86985058.408 5  21242645.277
  23678738.137   124432616.668 4  96960480.272 4  23678747.117
  22640075.184   118974402.725 5  92707327.584 5  22640079.904
 22  5 25 12  0  3.0000000  0  8G10G15G16G18G23G26G27G29
  21794255.505   114529592.539 5  89243838.693 5  21794261.775
  23363844.719   122777837.214 5  95671043.583 5  23363850.649
  22001846.406   115620489.537 5  90093888.585 5  22001849.546
  21316133.497   112017039.190 5  87286005.483 5  21316136.247
  20449683.117   107463814.556 5  83738037.486 5  20449685.807
  21242758.717   111631456.199 5  86985551.424 5  21242765.827
  23678168.315   124429622.413 4  96958147.059 4  23678176.615
  22640449.643   118976371.673 5  92708861.830 5  22640454.923
 22  5 25 12  0  4.0000000  0  8G10G15G16G18G23G26G27G29
  21793771.067   114527046.768 5  89241854.979 5  21793777.117
  23363720.590   122777191.722 5  95670540.603 5  23363727.730
  22001561.801   115618992.634 5  90092722.171 5  22001564.761
  21316406.545   112018472.893 5  87287122.653 5  21316409.015
  20449542.466   107463075.481 5  83737461.585 5  20449545.266
  21242879.914   111632089.693 5  86986045.053 5  21242886.284
  23677598.701   124426628.393 4  96955814.074 4  23677607.461
  22640824.494   118978341.119 5  92710396.456 5  22640829.364
 22  5 25 12  0  5.0000000  0  8G10G15G16G18G23G26G27G29
  21793286.720   114524501.608 5  89239871.741 5  21793292.960
  23363598.571   122776546.977 5  95670038.209 5  23363605.501
  22001277.493   115617496.531 5  90091556.370 5  22001280.083
  21316679.476   112019906.951 5  87288240.100 5  21316682.366
  20449402.421   107462337.215 5  83736886.314 5  20449404.921
  21243000.659   111632723.971 5  86986539.295 5  21243006.899
  23677029.359   124423634.553 4  96953481.212 4  23677036.779
  22641198.833   118980311.039 5  92711931.450 5  22641204.363
 22  5 25 12  0  6.0000000  0  8G10G15G16G18G23G26G27G29
  21792802.657   114521957.095 5  89237889.003 5  21792808.977
  23363476.574   122775903.014 5  95669536.418 5  23363482.194
  22000993.436   115616001.226 5  90090391.203 5  22000995.336
  21316952.392   112021341.352 5  87289357.809 5  21316954.952
  20449262.307   107461599.783 5  83736311.695 5  20449264.777
  21243121.316   111633359.072 5  86987034.177 5  21243127.996
  23676459.189   124420640.960 4  96951148.562 4  23676467.629
  22641574.176   118982281.480 5  92713466.857 5  22641579.166
 22  5 25 12  0  7.0000000  0  8G10G15G16G18G23G26G27G29
  21792318.429   114519413.061 5  89235906.645 5  21792324.729
  23363352.768   122775259.661 5  95669035.106 5  23363359.718
  22000708.642   115614506.560 5  90089226.539 5  22000711.272
  21317225.476   112022775.931 5  87290475.682 5  21317228.226
  20449121.486   107460863.030 5  83735737.597 5  20449124.436
  21243242.348   111633994.808 5  86987529.555 5  21243248.748
  23675890.027   124417647.421 4  96948815.941 4  23675897.217
  22641948.905   118984252.249 5  92715002.514 5  22641954.305
 22  5 25 12  0  8.0000000  0  8G10G15G16G18G23G26G27G29
  21791834.189   114516869.639 5  89233924.756 5  21791840.719
  23363230.771   122774617.044 5  95668534.362 5  23363237.721
  22000423.819   115613012.690 5  90088062.469 5  22000427.119
  21317498.626   112024210.899 5  87291593.811 5  21317501.206
  20448981.702   107460127.090 5  83735164.133 5  20448984.662
  21243363.782   111634631.358 5  86988025.566 5  21243369.802
  23675320.440   124414654.118 4  96946483.481 4  23675327.670
  22642324.161   118986223.539 5  92716538.576 5  22642329.141
 22  5 25 12  0  9.0000000  0  8G10G15G16G18G23G26G27G29
  21791350.312   114514326.684 5  89231943.236 5  21791357.022
  23363109.169   122773975.063 5  95668034.123 5  23363115.619
  22000140.077   115611519.453 5  90086898.917 5  22000142.837
  21317771.464   112025646.013 5  87292712.102 5  21317774.564
  20448842.085   107459391.792 5  83734591.181 5  20448844.425
  21243484.302   111635268.517 5  86988522.051 5  21243491.222
  23674750.552   124411660.837 4  96944151.060 4  23674757.962
  22642699.531   118988195.117 5  92718074.876 5  22642704.451
 22  5 25 12  0 10.0000000  0  8G10G15G16G18G23G26G27G29
  21790867.020   114511784.029 5  89229961.946 5  21790873.060
  23362987.249   122773333.529 5  95667534.223 5  23362993.379
  21999855.775   115610026.670 5  90085735.699 5  21999858.005
  21318044.323   112027081.172 5  87293830.396 5  21318047.613
  20448701.689   107458657.021 5  83734018.627 5  20448704.859
  21243605.907   111635906.180 5  86989018.927 5  21243612.607
  23674181.537   124408667.439 4  96941818.549 4  23674188.517
  22643075.306   118990166.908 5  92719611.323 5  22643079.296
 22  5 25 12  0 11.0000000  0  8G10G15G16G18G23G26G27G29
  21790382.978   114509241.740 5  89227980.951 5  21790389.108
  23362865.036   122772692.493 5  95667034.712 5  23362871.846
  21999572.306   115608534.427 5  90084572.917 5  21999574.486
  21318317.401   112028516.421 5  87294948.774 5  21318320.661
  20448562.550   107457922.792 5  83733446.502 5  20448564.980
  21243727.778   111636544.352 5  86989516.198 5  21243733.938
  23673611.185   124405674.031 4  96939486.045 4  23673618.735
  22643450.359   118992138.911 5  92721147.948 5  22643454.739
 22  5 25 12  0 12.0000000  0  8G10G15G16G18G23G26G27G29
  21789899.212   114506699.877 5  89226000.275 5  21789905.302
  23362743.320   122772052.020 5  95666535.638 5  23362749.390
  21999288.100   115607042.763 5  90083410.581 5  21999290.840
  21318590.623   112029951.814 5  87296067.253 5  21318593.743
  20448422.616   107457189.185 5  83732874.866 5  20448425.146
  21243849.035   111637183.129 5  86990013.952 5  21243855.635
  23673041.016   124402680.610 4  96937153.507 4  23673049.146
  22643825.186   118994111.227 5  92722684.819 5  22643830.106
 22  5 25 12  0 13.0000000  0  8G10G15G16G18G23G26G27G29
  21789415.916   114504158.484 5  89224019.969 5  21789421.556
  23362621.569   122771412.131 5  95666037.037 5  23362628.029
  21999004.211   115605551.764 5  90082248.749 5  21999007.071
  21318863.938   112031387.390 5  87297185.881 5  21318866.628
  20448283.290   107456456.245 5  83732303.740 5  20448285.160
  21243971.024   111637822.566 5  86990512.205 5  21243977.064
  23672472.351   124399687.255 4  96934821.023 4  23672479.131
  22644201.117   118996083.848 5  92724221.921 5  22644205.717
 22  5 25 12  0 14.0000000  0  8G10G15G16G18G23G26G27G29
  21788932.582   114501617.821 5  89222040.236 5  21788938.002
  23362500.417   122770773.141 5  95665539.123 5  23362506.547
  21998721.051   115604061.622 5  90081087.605 5  21998722.991
  21319137.390   112032823.418 5  87298304.871 5  21319139.690
  20448143.716   107455724.231 5  83731733.337 5  20448146.406
  21244092.521   111638462.872 5  86991011.149 5  21244098.831
  23671902.986   124396694.217 4  96932488.808 4  23671908.766
  22644576.652   118998057.095 5  92725759.512 5  22644581.272
 22  5 25 12  0 15.0000000  0  8G10G15G16G18G23G26G27G29
  21788449.065   114499077.958 5  89220061.120 5  21788454.925
  23362379.540   122770135.093 5  95665041.936 5  23362385.570
  21998436.899   115602572.471 5  90079927.229 5  21998440.219
  21319410.927   112034259.972 5  87299424.261 5  21319413.177
  20448004.600   107454993.225 5  83731163.726 5  20448006.970
  21244214.413   111639104.177 5  86991510.865 5  21244221.043
  23671332.717   124393701.584 4  96930156.889 4  23671340.067
  22644952.415   119000031.012 5  92727297.624 5  22644956.695
 22  5 25 12  0 16.0000000  0  8G10G15G16G18G23G26G27G29
  21787965.808   114496538.838 5  89218082.590 5  21787971.808
  23362258.148   122769497.918 5  95664545.449 5  23362263.768
  21998154.228   115601084.254 5  90078767.596 5  21998157.228
  21319684.179   112035696.996 5  87300544.028 5  21319686.709
  20447865.631   107454263.143 5  83730594.829 5  20447868.261
  21244336.726   111639746.395 5  86992011.298 5  21244343.076
  23670763.993   124390709.304 4  96927825.216 4  23670770.793
  22645327.992   119002005.547 5  92728836.211 5  22645332.612
 22  5 25 12  0 17.0000000  0  8G10G15G16G18G23G26G27G29
  21787482.306   114493999.784 5  89216104.106 5  21787488.506
  23362137.248   122768860.968 5  95664049.129 5  23362141.758
  21997871.302   115599596.276 5  90077608.119 5  21997873.072
  21319957.521   112037133.801 5  87301663.601 5  21319960.391
  20447726.857   107453533.325 5  83730026.145 5  20447729.547
  21244459.278   111640388.845 5  86992511.904 5  21244465.518
  23670193.767   124387716.651 4  96925493.292 4  23670201.087
  22645703.581   119003980.004 5  92730374.743 5  22645708.431
 22  5 25 12  0 18.0000000  0  8G10G15G16G18G23G26G27G29
  21786999.439   114491461.256 5  89214126.038 5  21787005.769
  23362015.628   122768224.680 5  95663553.315 5  23362021.998
  21997588.205   115598108.963 5  90076449.184 5  21997590.785
  21320231.129   112038570.857 5  87302783.395 5  21320233.509
  20447588.227   107452804.240 5  83729458.023 5  20447590.567
  21244581.461   111641032.005 5  86993013.062 5  21244587.861
  23669624.458   124384724.121 4  96923161.444 4  23669632.358
  22646079.269   119005954.863 5  92731913.593 5  22646084.069
 22  5 25 12  0 19.0000000  0  8G10G15G16G18G23G26G27G29
  21786516.551   114488923.396 5  89212148.480 5  21786522.841
  23361894.776   122767589.192 5  95663058.132 5  23361900.166
  21997305.147   115596622.518 5  90075290.914 5  21997307.787
  21320504.651   112040008.312 5  87303903.483 5  21320506.991
  20447449.849   107452076.033 5  83728890.591 5  20447452.309
  21244704.538   111641676.001 5  86993514.874 5  21244710.588
  23669054.723   124381731.834 4  96920829.795 4  23669062.713
  22646455.679   119007930.278 5  92733452.879 5  22646460.019
 22  5 25 12  0 20.0000000  0  8G10G15G16G18G23G26G27G29
  21786033.376   114486385.781 5  89210171.124 5  21786039.836
  23361773.462   122766954.102 5  95662563.249 5  23361779.932
  21997022.964   115595136.462 5  90074132.951 5  21997025.034
  21320777.699   112041445.712 5  87305023.538 5  21320780.519
  20447311.531   107451348.229 5  83728323.486 5  20447313.321
  21244826.865   111642320.403 5  86994017.008 5  21244833.085
  23668485.292   124378739.380 4  96918498.029 4  23668493.522
  22646830.704   119009905.788 5  92734992.224 5  22646835.964
 22  5 25 12  0 21.0000000  0  8G10G15G16G18G23G26G27G29
  21785550.680   114483848.591 5  89208194.094 5  21785556.860
  23361653.464   122766319.557 5  95662068.795 5  23361658.874
  21996740.451   115593651.021 5  90072975.453 5  21996742.101
  21321051.841   112042883.258 5  87306143.706 5  21321054.211
  20447173.147   107450621.059 5  83727756.846 5  20447175.207
  21244949.442   111642965.400 5  86994519.602 5  21244955.822
  23667916.238   124375746.949 4  96916166.286 4  23667924.578
  22647206.542   119011881.582 5  92736531.804 5  22647211.692
 22  5 25 12  0 22.0000000  0  8G10G15G16G18G23G26G27G29
  21785067.813   114481311.909 5  89206217.461 5  21785074.463
  23361532.534   122765685.677 5  95661574.879 5  23361538.064
  21996457.396   115592166.216 5  90071818.482 5  21996460.266
  21321325.030   112044321.052 5  87307264.053 5  21321327.920
  20447034.744   107449894.609 5  83727190.784 5  20447036.744
  21245071.784   111643611.072 5  86995022.725 5  21245078.684
  23667347.171   124372754.624 4  96913834.593 4  23667354.541
  22647583.429   119013857.752 5  92738071.684 5  22647587.769
 22  5 25 12  0 23.0000000  0  8G10G15G16G18G23G26G27G29
  21784585.615   114478775.943 5  89204241.391 5  21784591.745
  23361412.644   122765052.662 5  95661081.601 5  23361418.134
  21996175.274   115590682.323 5  90070662.190 5  21996176.784
  21321598.623   112045759.273 5  87308384.756 5  21321601.773
  20446896.393   107449169.067 5  83726625.422 5  20446898.963
  21245195.172   111644257.643 5  86995526.549 5  21245201.552
  23666778.004   124369762.593 4  96911503.140 4  23666785.004
  22647959.381   119015834.512 5  92739612.017 5  22647963.831
 22  5 25 12  0 24.0000000  0  8G10G15G16G18G23G26G27G29
  21784103.252   114476240.676 5  89202265.859 5  21784109.362
  23361291.977   122764420.429 5  95660588.957 5  23361297.627
  21995892.572   115589199.288 5  90069506.577 5  21995895.492
  21321872.691   112047197.900 5  87309505.749 5  21321875.231
  20446758.447   107448444.402 5  83726060.747 5  20446760.937
  21245317.865   111644905.076 5  86996031.032 5  21245324.995
  23666207.762   124366770.844 4  96909171.914 4  23666216.382
  22648335.812   119017811.819 5  92741152.771 5  22648340.132
 22  5 25 12  0 25.0000000  0  8G10G15G16G18G23G26G27G29
  21783620.895   114473705.975 5  89200290.772 5  21783626.945
  23361171.311   122763788.954 5  95660096.906 5  23361176.941
  21995610.201   115587716.984 4  90068351.535 4  21995613.161
  21322146.545   112048636.841 5  87310627.014 5  21322148.945
  20446621.064   107447720.522 5  83725496.689 5  20446623.104
  21245441.551   111645553.256 5  86996536.102 5  21245448.231
  23665638.663   124363779.267 4  96906840.811 4  23665647.003
  22648712.136   119019789.608 5  92742693.893 5  22648716.166
 22  5 25 12  0 26.0000000  0  8G10G15G16G18G23G26G27G29
  21783138.463   114471171.754 6  89198316.051 6  21783144.733
  23361051.076   122763158.073 5  95659605.311 5  23361057.036
  21995328.477   115586235.326 5  90067196.995 5  21995331.417
  21322420.651   112050075.951 5  87311748.388 5  21322423.081
  20446482.791   107446997.294 5  83724933.129 5  20446485.581
  21245564.879   111646202.065 6  86997041.671 6  21245571.889
  23665069.426   124360787.739 4  96904509.751 4  23665077.996
  22649088.100   119021767.707 6  92744235.261 6  22649093.050
 22  5 25 12  0 27.0000000  0  8G10G15G16G18G23G26G27G29
  21782656.202   114468638.349 6  89196341.969 6  21782662.852
  23360930.484   122762528.176 5  95659114.489 5  23360936.834
  21995047.224   115584754.665 5  90066043.237 5  21995049.584
  21322694.380   112051515.621 6  87312870.210 6  21322697.150
  20446345.929   107446275.099 6  83724370.385 6  20446348.019
  21245688.214   111646851.880 6  86997548.020 6  21245695.374
  23664499.974   124357796.632 4  96902179.029 4  23664508.734
  22649464.627   119023746.517 6  92745777.182 6  22649469.557
 22  5 25 12  0 28.0000000  0  8G10G15G16G18G23G26G27G29
  21782174.441   114466105.076 6  89194367.992 6  21782180.461
  23360811.512   122761898.529 5  95658623.849 5  23360817.102
  21994764.846   115583274.282 5  90064889.682 5  21994767.936
  21322967.946   112052955.134 6  87313991.910 6  21322970.526
  20446208.552   107445553.220 6  83723807.879 6  20446210.882
  21245812.025   111647501.983 6  86998054.592 6  21245819.125
  23663931.342   124354805.264 4  96899848.094 4  23663939.062
  22649841.379   119025725.302 6  92747319.093 6  22649846.029
 22  5 25 12  0 29.0000000  0  8G10G15G16G18G23G26G27G29
  21781692.102   114463572.071 6  89192394.227 6  21781698.712
  23360691.745   122761269.297 5  95658133.543 5  23360697.715
  21994483.131   115581794.340 5  90063736.486 5  21994485.991
  21323242.601   112054394.648 6  87315113.595 6  21323244.891
  20446071.676   107444831.804 6  83723245.738 6  20446073.356
  21245935.633   111648152.534 6  86998561.510 6  21245942.943
  23663363.179   124351813.728 4  96897517.033 4  23663369.949
  22650217.616   119027704.251 6  92748861.129 6  22650222.616
 22  5 25 12  0 30.0000000  0  8G10G15G16G18G23G26G27G29
  21781210.366   114461039.769 6  89190421.002 6  21781216.786
  23360571.522   122760640.901 6  95657643.890 6  23360578.112
  21994201.842   115580315.246 5  90062583.942 5  21994204.972
  21323516.021   112055834.559 6  87316235.617 6  21323519.071
  20445934.311   107444111.291 6  83722684.300 6  20445936.471
  21246059.720   111648803.960 6  86999069.114 6  21246066.950
  23662793.132   124348822.493 5  96895186.185 5  23662801.082
  22650594.206   119029683.747 6  92750403.588 6  22650599.296
 22  5 25 12  0 31.0000000  0  8G10G15G16G18G23G26G27G29
  21780728.686   114458508.080 6  89188448.264 6  21780734.956
  23360453.026   122760013.267 6  95657154.825 6  23360459.136
  21993920.250   115578836.951 5  90061432.040 5  21993923.910
  21323790.043   112057274.828 6  87317357.890 6  21323792.993
  20445797.258   107443391.576 6  83722123.486 6  20445799.438
  21246184.017   111649456.172 6  86999577.326 6  21246190.847
  23662223.554   124345831.460 5  96892855.530 5  23662231.284
  22650971.324   119031663.746 6  92751946.435 6  22650976.524
 22  5 25 12  0 32.0000000  0  8G10G15G16G18G23G26G27G29
  21780247.145   114455976.990 6  89186475.991 6  21780253.145
  23360332.866   122759386.355 6  95656666.315 6  23360339.486
  21993639.806   115577359.415 5  90060280.704 5  21993643.296
  21324064.515   112058715.400 6  87318480.422 6  21324067.415
  20445660.661   107442672.669 6  83721563.299 6  20445662.271
  21246308.826   111650109.139 6  87000086.137 6  21246315.216
  23661654.961   124342840.610 5  96890524.985 5  23661662.731
  22651348.511   119033644.186 6  92753489.638 6  22651353.301
 22  5 25 12  0 33.0000000  0  8G10G15G16G18G23G26G27G29
  21779765.420   114453446.767 6  89184504.385 6  21779771.540
  23360215.284   122758760.462 6  95656178.610 6  23360220.584
  21993358.025   115575882.927 5  90059130.202 5  21993361.395
  21324338.421   112060156.575 6  87319603.414 6  21324341.481
  20445523.587   107441954.833 6  83721003.943 6  20445526.127
  21246433.414   111650763.163 6  87000595.756 6  21246439.674
  23661085.745   124339850.216 5  96888194.823 5  23661093.335
  22651725.812   119035625.393 6  92755033.424 6  22651730.382
 22  5 25 12  0 34.0000000  0  8G10G15G16G18G23G26G27G29
  21779284.034   114450916.911 6  89182533.070 6  21779290.344
  23360095.125   122758135.070 6  95655691.297 6  23360101.235
  21993077.605   115574406.964 5  90057980.102 5  21993080.905
  21324613.252   112061597.820 6  87320726.454 6  21324615.652
  20445386.896   107441237.529 6  83720445.010 6  20445389.566
  21246557.453   111651417.707 7  87001105.790 7  21246564.263
  23660516.940   124336859.778 5  96885864.614 5  23660524.320
  22652103.103   119037606.795 6  92756577.374 6  22652107.493
 22  5 25 12  0 35.0000000  0  8G10G15G16G18G23G26G27G29
  21778802.523   114448387.742 7  89180562.293 7  21778809.043
  23359976.269   122757510.507 6  95655204.623 6  23359982.129
  21992797.500   115572931.848 5  90056830.661 5  21992799.650
  21324887.539   112063039.466 6  87321849.815 6  21324889.999
  20445250.515   107440521.124 6  83719886.770 6  20445252.935
  21246682.092   111652073.108 7  87001616.497 7  21246688.912
  23659947.136   124333869.630 5  96883534.623 5  23659955.226
  22652479.951   119039588.789 6  92758121.777 6  22652484.551
 22  5 25 12  0 36.0000000  0  8G10G15G16G18G23G26G27G29
  21778321.281   114445859.061 6  89178591.895 6  21778327.731
  23359857.323   122756886.576 6  95654718.446 6  23359863.523
  21992517.005   115571457.400 5  90055681.740 5  21992518.995
  21325161.276   112064481.337 6  87322973.348 6  21325164.506
  20445114.879   107439805.405 6  83719329.069 6  20445117.129
  21246806.692   111652729.172 6  87002127.717 6  21246813.772
  23659378.439   124330879.558 5  96881204.703 5  23659387.119
  22652857.684   119041571.109 6  92759666.439 6  22652861.814
 22  5 25 12  0 37.0000000  0  8G10G15G16G18G23G26G27G29
  21777840.537   114443330.905 6  89176621.899 6  21777846.697
  23359738.974   122756263.307 6  95654232.789 6  23359745.094
  21992236.250   115569983.628 5  90054533.350 5  21992239.170
  21325436.129   112065923.434 6  87324097.057 6  21325438.979
  20444978.345   107439090.391 6  83718771.914 6  20444981.025
  21246932.278   111653385.932 6  87002639.468 6  21246938.628
  23658809.307   124327889.571 4  96878874.833 4  23658817.047
  22653234.373   119043553.839 6  92761211.424 6  22653239.283
 22  5 25 12  0 38.0000000  0  8G10G15G16G18G23G26G27G29
  21777359.712   114440803.252 6  89174652.308 6  21777365.742
  23359620.718   122755640.678 6  95653747.614 6  23359626.488
  21991955.560   115568510.557 5  90053385.497 5  21991958.560
  21325710.430   112067365.764 6  87325220.948 6  21325713.460
  20444842.338   107438376.079 6  83718215.311 6  20444845.088
  21247056.725   111654043.359 6  87003151.752 6  21247063.655
  23658241.317   124324899.698 5  96876545.071 5  23658248.047
  22653611.851   119045536.932 6  92762756.691 6  22653616.441
 22  5 25 12  0 39.0000000  0  8G10G15G16G18G23G26G27G29
  21776878.260   114438276.442 6  89172683.366 6  21776884.670
  23359502.183   122755019.021 6  95653263.207 6  23359508.183
  21991675.662   115567038.465 5  90052238.416 5  21991678.522
  21325984.569   112068808.669 6  87326345.288 6  21325987.999
  20444707.072   107437662.812 6  83717659.519 6  20444709.342
  21247182.005   111654701.813 6  87003664.834 6  21247189.165
  23657671.670   124321910.243 5  96874215.646 5  23657679.870
  22653988.999   119047520.743 6  92764302.510 6  22653994.119
 22  5 25 12  0 40.0000000  0  8G10G15G16G18G23G26G27G29
  21776397.818   114435750.086 6  89170714.778 6  21776403.888
  23359383.741   122754397.985 6  95652779.280 6  23359390.031
  21991396.015   115565567.000 5  90051091.813 5  21991398.085
  21326259.866   112070251.715 6  87327469.734 6  21326262.766
  20444571.197   107436950.179 6  83717104.217 6  20444574.087
  21247307.714   111655360.856 6  87004178.370 6  21247314.364
  23657103.272   124318920.859 5  96871886.251 5  23657111.572
  22654366.494   119049504.853 6  92765848.561 6  22654371.654
 22  5 25 12  0 41.0000000  0  8G10G15G16G18G23G26G27G29
  21775917.137   114433224.586 6  89168746.862 6  21775922.977
  23359265.698   122753777.930 6  95652296.119 6  23359272.118
  21991115.485   115564096.572 5  90049946.016 5  21991118.635
  21326534.290   112071695.359 6  87328594.671 6  21326537.490
  20444435.541   107436238.614 6  83716549.754 6  20444438.391
  21247433.459   111656020.961 6  87004692.739 6  21247440.109
  23656534.371   124315931.898 4  96869557.206 4  23656542.011
  22654743.714   119051489.716 6  92767395.204 6  22654749.664
 22  5 25 12  0 42.0000000  0  8G10G15G16G18G23G26G27G29
  21775437.062   114430699.549 6  89166779.306 6  21775442.692
  23359146.938   122753158.478 6  95651813.439 6  23359154.208
  21990835.544   115562626.759 5  90048800.723 5  21990838.704
  21326808.830   112073139.206 6  87329719.731 6  21326812.410
  20444300.262   107435527.701 6  83715995.796 6  20444302.982
  21247559.636   111656681.685 6  87005207.587 6  21247565.906
  23655965.059   124312943.015 5  96867228.201 5  23655973.849
  22655122.271   119053474.891 6  92768942.097 6  22655126.961
 22  5 25 12  0 43.0000000  0  8G10G15G16G18G23G26G27G29
  21774956.233   114428174.865 6  89164812.025 6  21774962.093
  23359030.616   122752539.488 6  95651331.114 6  23359036.406
  21990556.279   115561157.464 5  90047655.807 5  21990559.109
  21327084.037   112074583.086 6  87330844.827 6  21327086.737
  20444165.958   107434817.329 6  83715442.253 6  20444167.848
  21247684.820   111657342.935 7  87005722.840 7  21247691.640
  23655396.320   124309954.034 5  96864899.133 5  23655404.930
  22655500.238   119055460.275 6  92770489.141 6  22655504.778
 22  5 25 12  0 44.0000000  0  8G10G15G16G18G23G26G27G29
  21774475.663   114425650.440 6  89162844.940 6  21774481.713
  23358912.830   122751920.935 6  95650849.122 6  23358918.850
  21990277.583   115559688.601 5  90046511.253 5  21990279.553
  21327358.866   112076026.958 6  87331969.922 6  21327361.796
  20444030.077   107434107.414 6  83714889.076 6  20444033.017
  21247810.478   111658004.606 7  87006238.435 7  21247817.448
  23654828.255   124306964.931 5  96862569.952 5  23654836.595
  22655877.922   119057445.816 6  92772036.314 6  22655882.482
 22  5 25 12  0 45.0000000  0  8G10G15G16G18G23G26G27G29
  21773995.600   114423126.552 6  89160878.271 6  21774001.520
  23358795.773   122751303.024 6  95650367.636 6  23358801.123
  21989997.882   115558220.435 5  90045367.217 5  21989999.832
  21327634.222   112077471.060 6  87333095.197 6  21327636.572
  20443895.015   107433398.225 6  83714336.466 6  20443898.045
  21247936.936   111658666.965 7  87006754.549 7  21247943.596
  23654259.099   124303975.934 5  96860240.877 5  23654266.469
  22656256.191   119059431.745 6  92773583.780 6  22656260.651
 22  5 25 12  0 46.0000000  0  8G10G15G16G18G23G26G27G29
  21773516.183   114420603.419 6  89158912.196 6  21773521.263
  23358677.259   122750686.015 6  95649886.848 6  23358683.829
  21989718.922   115556753.190 5  90044223.928 5  21989720.592
  21327908.073   112078915.650 6  87334220.848 6  21327911.393
  20443760.138   107432689.978 6  83713784.583 6  20443763.308
  21248063.587   111659330.263 7  87007271.406 7  21248069.877
  23653690.381   124300987.284 5  96857912.065 5  23653699.111
  22656633.702   119061418.286 6  92775131.738 6  22656638.722
 22  5 25 12  0 47.0000000  0  8G10G15G16G18G23G26G27G29
  21773035.502   114418080.800 6  89156946.521 6  21773041.372
  23358559.828   122750069.681 6  95649406.588 6  23358566.568
  21989440.151   115555286.663 5  90043081.162 5  21989441.711
  21328183.325   112080360.492 6  87335346.701 6  21328186.205
